{
  "type": "FeatureCollection",
  "features": [
    {
      "type": "Feature",
      "properties": { "name": "Andrikopoulos" },
      "geometry": {
        "coordinates": [21.792698664544986, 38.29577937385383],
        "type": "Point"
      },
      "id": 0
    },
    {
      "type": "Feature",
      "properties": { "name": "The Mart" },
      "geometry": {
        "coordinates": [21.78067145192719, 38.28932984786806],
        "type": "Point"
      },
      "id": 1
    },
    {
      "type": "Feature",
      "properties": { "name": "Super Market Paraskevopoulos" },
      "geometry": {
        "coordinates": [21.758214310161435, 38.269728095831596],
        "type": "Point"
      },
      "id": 2
    },
    {
      "type": "Feature",
      "properties": { "name": "MARKET IN" },
      "geometry": {
        "coordinates": [21.73973927011994, 38.264205557574996],
        "type": "Point"
      },
      "id": 3
    },
    {
      "type": "Feature",
      "properties": { "name": "LIDL" },
      "geometry": {
        "coordinates": [21.743364035307337, 38.263267125939194],
        "type": "Point"
      },
      "id": 4
    },
    {
      "type": "Feature",
      "properties": { "name": "Galaxias" },
      "geometry": {
        "coordinates": [21.745198392527584, 38.2595613107288],
        "type": "Point"
      },
      "id": 5
    },
    {
      "type": "Feature",
      "properties": { "name": "Andrikopoulos" },
      "geometry": {
        "coordinates": [21.741584980564824, 38.258523587025564],
        "type": "Point"
      },
      "id": 6
    },
    {
      "type": "Feature",
      "properties": { "name": "ΑΒ Βασιλόπουλος" },
      "geometry": {
        "coordinates": [21.74186936946944, 38.25655318477476],
        "type": "Point"
      },
      "id": 7
    },
    {
      "type": "Feature",
      "properties": { "name": "My Market" },
      "geometry": {
        "coordinates": [21.73966623174138, 38.25694961537019],
        "type": "Point"
      },
      "id": 8
    },
    {
      "type": "Feature",
      "properties": { "name": "mini market Ιωάνου Αγίας Σοφίας" },
      "geometry": {
        "coordinates": [21.74562971968365, 38.256205573850536],
        "type": "Point"
      },
      "id": 9
    },
    {
      "type": "Feature",
      "properties": { "name": "OK Grocery" },
      "geometry": {
        "coordinates": [21.743691296841092, 38.25269695453588],
        "type": "Point"
      },
      "id": 10
    },
    {
      "type": "Feature",
      "properties": { "name": "Mini Market Dodamarket" },
      "geometry": {
        "coordinates": [21.7393918604634, 38.254734700026034],
        "type": "Point"
      },
      "id": 11
    },
    {
      "type": "Feature",
      "properties": { "name": "3A ARAPIS" },
      "geometry": {
        "coordinates": [21.73966932574163, 38.25041615046726],
        "type": "Point"
      },
      "id": 12
    },
    {
      "type": "Feature",
      "properties": { "name ": "3A ARAPIS" },
      "geometry": {
        "coordinates": [21.745621221018325, 38.23990485872832],
        "type": "Point"
      },
      "id": 13
    },
    {
      "type": "Feature",
      "properties": { "name": "Sklavenitis" },
      "geometry": {
        "coordinates": [21.737264610263026, 38.23646568355434],
        "type": "Point"
      },
      "id": 14
    },
    {
      "type": "Feature",
      "properties": { "name": "LIDL" },
      "geometry": {
        "coordinates": [21.740126463261646, 38.23127289518726],
        "type": "Point"
      },
      "id": 15
    },
    {
      "type": "Feature",
      "properties": { "name": "AB Vasilipoulos" },
      "geometry": {
        "coordinates": [21.74722385869785, 38.23163258079211],
        "type": "Point"
      },
      "id": 16
    },
    {
      "type": "Feature",
      "properties": { "name": "Sklavenitis" },
      "geometry": {
        "coordinates": [21.727880183484473, 38.23232434196714],
        "type": "Point"
      },
      "id": 17
    },
    {
      "type": "Feature",
      "properties": { "name": "AB Vasilopoulos" },
      "geometry": {
        "coordinates": [21.73583870867202, 38.21710356069016],
        "type": "Point"
      },
      "id": 18
    },
    {
      "type": "Feature",
      "properties": { "name": "AB Vasilopoulos" },
      "geometry": {
        "coordinates": [21.725770661630833, 38.23224472814786],
        "type": "Point"
      },
      "id": 19
    },
    {
      "type": "Feature",
      "properties": { "name": "LIDL" },
      "geometry": {
        "coordinates": [21.760804950743022, 38.21012543779045],
        "type": "Point"
      },
      "id": 20
    },
    {
      "type": "Feature",
      "properties": { "name": "Sklavenitis" },
      "geometry": {
        "coordinates": [21.764225904068383, 38.2104586608927],
        "type": "Point"
      },
      "id": 21
    },
    {
      "type": "Feature",
      "properties": { "name": "Sklavenitis" },
      "geometry": {
        "coordinates": [21.749748268707947, 38.26904889867123],
        "type": "Point"
      },
      "id": 22
    },
    {
      "type": "Feature",
      "properties": { "name": "Market Spot" },
      "geometry": {
        "coordinates": [21.745138403686326, 38.254055729233386],
        "type": "Point"
      },
      "id": 23
    },
    {
      "type": "Feature",
      "properties": { "name": "Mini Market Leonidas" },
      "geometry": {
        "coordinates": [21.74555112866787, 38.25724850865683],
        "type": "Point"
      },
      "id": 24
    },
    {
      "type": "Feature",
      "properties": { "name": "3A ARAPIS" },
      "geometry": {
        "coordinates": [21.745760790002805, 38.255920412612994],
        "type": "Point"
      },
      "id": 25
    },
    {
      "type": "Feature",
      "properties": { "name": "Mini Market Τρεχαλίτσας" },
      "geometry": {
        "coordinates": [21.74439840175171, 38.25320043528953],
        "type": "Point"
      },
      "id": 26
    },
    {
      "type": "Feature",
      "properties": { "name": "kioski4all" },
      "geometry": {
        "coordinates": [21.741831995539854, 38.25330912869293],
        "type": "Point"
      },
      "id": 27
    },
    {
      "type": "Feature",
      "properties": { "name": "Μίνι Μαρκετ" },
      "geometry": {
        "coordinates": [21.73126615659953, 38.24523494374358],
        "type": "Point"
      },
      "id": 28
    },
    {
      "type": "Feature",
      "properties": { "name": "Mini Market παπανικολάου" },
      "geometry": {
        "coordinates": [21.740988036376137, 38.241258496222144],
        "type": "Point"
      },
      "id": 29
    },
    {
      "type": "Feature",
      "properties": { "name": "Mini Market - George Doukas" },
      "geometry": {
        "coordinates": [21.72796626635602, 38.23435809144101],
        "type": "Point"
      },
      "id": 30
    },
    {
      "type": "Feature",
      "properties": { "name": "Mini Market Αργύρης" },
      "geometry": {
        "coordinates": [21.74068262104555, 38.232779302943044],
        "type": "Point"
      },
      "id": 31
    },
    {
      "type": "Feature",
      "properties": { "name": "Mini Market Tzelis" },
      "geometry": {
        "coordinates": [21.73980855263042, 38.22834063092557],
        "type": "Point"
      },
      "id": 32
    },
    {
      "type": "Feature",
      "properties": { "name": "Μίνι μάρκετ Εύβοιας 52" },
      "geometry": {
        "coordinates": [21.737136936248504, 38.22728556608544],
        "type": "Point"
      },
      "id": 33
    },
    {
      "type": "Feature",
      "properties": { "name": "Mini market Ioannou Ακρωτηρίου 129" },
      "geometry": {
        "coordinates": [21.742163481950854, 38.221488426598285],
        "type": "Point"
      },
      "id": 34
    },
    {
      "type": "Feature",
      "properties": { "name": "COFFEE DAY MINI MARKET" },
      "geometry": {
        "coordinates": [21.749164776450158, 38.22487641785216],
        "type": "Point"
      },
      "id": 35
    },
    {
      "type": "Feature",
      "properties": { "name": "Mini Market Καλυβιώτης" },
      "geometry": {
        "coordinates": [21.73501800547976, 38.221140426621446],
        "type": "Point"
      },
      "id": 36
    },
    {
      "type": "Feature",
      "properties": { "name": "\"Η ΓΕΙΤΟΝΙΑ\" Mini Market" },
      "geometry": {
        "coordinates": [21.73955566423291, 38.211875132935944],
        "type": "Point"
      },
      "id": 37
    }
  ]
}
